[
	{
		"address": "2121 Oak Valley Dr, Ann Arbor, MI 48103, United States",
		"coordinates": { "latitude": 42.2542447, "longitude": -83.7778416 },
		"drop_off": 15,
		"is_high_priority": false,
		"time_slots": ""
	},
	{
		"address": "767 N University Ave, Ann Arbor, MI 48109, United States",
		"coordinates": { "latitude": 42.2787389, "longitude": -83.7401024 },
		"drop_off": 5,
		"is_high_priority": true,
		"time_slots": ""
	},
	{
		"address": "1201 S Main St, Ann Arbor, MI 48104, United States",
		"coordinates": { "latitude": 42.2666423, "longitude": -83.7499573 },
		"drop_off": 23,
		"is_high_priority": false,
		"time_slots": ""
	},
	{
		"address": "220 E Ann St, Ann Arbor, MI 48104, United States",
		"coordinates": { "latitude": 42.2819481, "longitude": -83.7465398 },
		"drop_off": 30,
		"is_high_priority": false,
		"time_slots": ""
	},
	{
		"address": "1800 N Dixboro Rd, Ann Arbor, MI 48105, United States",
		"coordinates": { "latitude": 42.2991074, "longitude": -83.6658018 },
		"drop_off": 23,
		"is_high_priority": true,
		"time_slots": ""
	},
	{
		"address": "304 S Ashley St, Ann Arbor, MI 48104, United States",
		"coordinates": { "latitude": 42.2794184, "longitude": -83.7500808 },
		"drop_off": 60,
		"is_high_priority": false,
		"time_slots": ""
	},
	{
		"address": "8801 N Territorial Rd, Dexter, MI 48130, United States",
		"coordinates": { "latitude": 42.3846897, "longitude": -83.9069447 },
		"drop_off": 2,
		"is_high_priority": false,
		"time_slots": ""
	}
]
