[
	{
		"address": "2121 Oak Valley Dr, Ann Arbor, MI 48103, United States",
		"coordinates": { "latitude": 42.2542447, "longitude": -83.7778416 },
		"drop_off_duration": 300,
		"priority": 1,
		"time_windows": [{ "startTime": "09:00", "endTime": "10:00" }]
	},
	{
		"address": "767 N University Ave, Ann Arbor, MI 48109, United States",
		"coordinates": { "latitude": 42.2787389, "longitude": -83.7401024 },
		"drop_off_duration": 300,
		"priority": 87,
		"time_windows": [{ "startTime": "09:00", "endTime": "10:00" }]
	},
	{
		"address": "1201 S Main St, Ann Arbor, MI 48104, United States",
		"coordinates": { "latitude": 42.2666423, "longitude": -83.7499573 },
		"drop_off_duration": 300,
		"priority": 23,
		"time_windows": [{ "startTime": "09:00", "endTime": "10:00" }]
	},
	{
		"address": "220 E Ann St, Ann Arbor, MI 48104, United States",
		"coordinates": { "latitude": 42.2819481, "longitude": -83.7465398 },
		"drop_off_duration": 300,
		"priority": 15,
		"time_windows": [{ "startTime": "12:00", "endTime": "13:00" }]
	},
	{
		"address": "1800 N Dixboro Rd, Ann Arbor, MI 48105, United States",
		"coordinates": { "latitude": 42.2991074, "longitude": -83.6658018 },
		"drop_off_duration": 300,
		"priority": 59,
		"time_windows": [{ "startTime": "14:00", "endTime": "15:00" }]
	},
	{
		"address": "304 S Ashley St, Ann Arbor, MI 48104, United States",
		"coordinates": { "latitude": 42.2794184, "longitude": -83.7500808 },
		"drop_off_duration": 300,
		"priority": 99,
		"time_windows": [{ "startTime": "14:00", "endTime": "15:00" }]
	},
	{
		"address": "8801 N Territorial Rd, Dexter, MI 48130, United States",
		"coordinates": { "latitude": 42.3846897, "longitude": -83.9069447 },
		"drop_off_duration": 300,
		"priority": 7,
		"time_windows": [{ "startTime": "09:00", "endTime": "10:00" }]
	}
]
